[{"name":"Leo's Hot Dogs","latitude":"37.76008693198698","longitude":"-122.41880648110114","address":"MISSION ST: 19TH ST to 20TH ST (2300 - 2399)"},{"name":"Casita Vegana","latitude":"37.72188970870838","longitude":"-122.4925212449949","address":"JOHN MUIR DR: LAKE MERCED BLVD to SKYLINE BLVD (200 - 699)"},{"name":"El Calamar Perubian Food Truck","latitude":"37.788457028828915","longitude":"-122.3998841605663","address":"MISSION ST: ANTHONY ST to 02ND ST (573 - 599)"},{"name":"MOMO INNOVATION LLC","latitude":"37.792870749741496","longitude":"-122.4007474940767","address":"CALIFORNIA ST: BATTERY ST to SANSOME ST (300 - 399)"},{"name":"MOMO INNOVATION LLC","latitude":"37.792948952834664","longitude":"-122.39809861316652","address":"CALIFORNIA ST: DAVIS ST to FRONT ST (100 - 199)"},{"name":"Buenafe","latitude":"37.74574924062031","longitude":"-122.3924814876784","address":"RANKIN ST: DAVIDSON AVE to EVANS AVE (200 - 299)"},{"name":"MOMO INNOVATION LLC","latitude":"37.78844615690132","longitude":"-122.3986412420388","address":"MISSION ST: SHAW ALY to ANTHONY ST (543 - 586)"},{"name":"Buenafe","latitude":"37.73944545286909","longitude":"-122.39301498669842","address":"EVANS AVE: PHELPS ST to QUINT ST (1600 - 1699)"},{"name":"MOMO INNOVATION LLC","latitude":"37.79092150726921","longitude":"-122.4001004237385","address":"BUSH ST: BATTERY ST to SANSOME ST (100 - 199)"},{"name":"BOWL'D ACAI, LLC.","latitude":"37.80457786909011","longitude":"-122.43301077434302","address":"BUCHANAN ST: NORTH POINT ST to BEACH ST \\ LOWER FORT MASON ST \\ MARINA BLVD (3700 - 3799)"},{"name":"BOWL'D ACAI, LLC.","latitude":"37.78021548028814","longitude":"-122.41602577015111","address":"LARKIN ST: FULTON ST to MCALLISTER ST (200 - 299)"},{"name":"BOWL'D ACAI, LLC.","latitude":"37.79357693326183","longitude":"-122.40322987670133","address":"MONTGOMERY ST: CALIFORNIA ST to SACRAMENTO ST (400 - 499)"},{"name":"BOWL'D ACAI, LLC.","latitude":"37.79236678688307","longitude":"-122.40014830676716","address":"BATTERY ST: PINE ST to CALIFORNIA ST (100 - 199)"},{"name":"Think is Good Inc.","latitude":"37.79264071673365","longitude":"-122.39897033211076","address":"PINE ST: FRONT ST to BATTERY ST (100 - 199)"},{"name":"Philz Coffee Truck","latitude":"37.79621549659414","longitude":"-122.40375455824538","address":"MONTGOMERY ST: COLUMBUS AVE \\ WASHINGTON ST to JACKSON ST (700 - 799)"},{"name":"Philz Coffee Truck","latitude":"37.79229559981873","longitude":"-122.40070689723306","address":"PINE ST: BATTERY ST to SANSOME ST (200 - 299)"},{"name":"Buenafe","latitude":"37.76612469442701","longitude":"-122.39547306227007","address":"MISSISSIPPI ST: 07TH ST \\ 16TH ST to 17TH ST (1 - 99)"},{"name":"MOMO INNOVATION LLC","latitude":"37.7865580501799","longitude":"-122.40103337534973","address":"MISSION ST: ANNIE ST to 03RD ST (663 - 699)"},{"name":"Think is Good Inc.","latitude":"37.793262206923096","longitude":"-122.4017890913628","address":"CALIFORNIA ST: SANSOME ST to LEIDESDORFF ST (400 - 448)"},{"name":"CARDONA'S FOOD TRUCK","latitude":"37.767817181414145","longitude":"-122.42057533514163","address":"MISSION ST: 14TH ST to 15TH ST (1800 - 1899)"},{"name":"Think is Good Inc.","latitude":"37.78886471534304","longitude":"-122.39935935136297","address":"MISSION ST: SHAW ALY to ANTHONY ST (543 - 586)"},{"name":"CARDONA'S FOOD TRUCK","latitude":"37.766897602559155","longitude":"-122.42032247306807","address":"MISSION ST: 14TH ST to 15TH ST (1800 - 1899)"},{"name":"Philz Coffee Truck","latitude":"37.79279574157871","longitude":"-122.40135328093122","address":"CALIFORNIA ST: SANSOME ST to LEIDESDORFF ST (400 - 448)"},{"name":"Zuri Food Facilities","latitude":"37.792346385148","longitude":"-122.40238532279395","address":"CALIFORNIA ST: LEIDESDORFF ST to MONTGOMERY ST (449 - 499)"},{"name":"Zuri Food Facilities","latitude":"37.783046099749996","longitude":"-122.39406659922962","address":"02ND ST: STILLMAN ST to BRYANT ST (454 - 499)"},{"name":"Philz Coffee Truck","latitude":"37.80457786909011","longitude":"-122.43301077434302","address":"MARINA BLVD: LAGUNA ST to BEACH ST \\ BUCHANAN ST \\ LOWER FORT MASON ST (1 - 99)"},{"name":"Philz Coffee Truck","latitude":"37.789385451039095","longitude":"-122.4095912604668","address":"SUTTER ST: POWELL ST to MASON ST (500 - 599)"},{"name":"Zuri Food Facilities","latitude":"37.792150548481686","longitude":"-122.39399997405945","address":"SPEAR ST: MISSION ST to HOWARD ST (100 - 199)"},{"name":"Senor Sisig","latitude":"37.792948952834664","longitude":"-122.39809861316652","address":"CALIFORNIA ST: DAVIS ST to FRONT ST (100 - 199)"},{"name":"Senor Sisig","latitude":"37.78561008636915","longitude":"-122.40815476434545","address":"ELLIS ST: POWELL ST to CYRIL MAGNIN ST (100 - 148)"},{"name":"Zuri Food Facilities","latitude":"0","longitude":"0","address":"MARIPOSA ST: ARKANSAS ST to CAROLINA ST (1500 - 1699)"},{"name":"Senor Sisig","latitude":"37.799260113502285","longitude":"-122.39961794865545","address":"FRONT ST: BROADWAY to VALLEJO ST (800 - 899)"},{"name":"Senor Sisig","latitude":"0","longitude":"0","address":"PINE ST: SANSOME ST to CENTURY PL (300 - 340)"},{"name":"Senor Sisig","latitude":"37.787514060738104","longitude":"-122.39956633142907","address":"02ND ST: MISSION ST to MINNA ST (100 - 130)"},{"name":"Senor Sisig","latitude":"37.78215364099855","longitude":"-122.40660110683912","address":"MISSION ST: 05TH ST to MINT ST (900 - 930)"},{"name":"Senor Sisig","latitude":"37.799260113502285","longitude":"-122.39961794865545","address":"BROADWAY: DAVIS ST to FRONT ST (50 - 99)"},{"name":"Senor Sisig","latitude":"37.7758255197583","longitude":"-122.41724962664345","address":"10TH ST: FELL ST \\ MARKET ST \\ POLK ST to STEVENSON ST (1 - 18)"},{"name":"Natan's Catering","latitude":"37.76854328902419","longitude":"-122.40849289243862","address":"POTRERO AVE: 10TH ST \\ BRANNAN ST \\ DIVISION ST to ALAMEDA ST (1 - 99)"},{"name":"Natan's Catering","latitude":"37.764741322674965","longitude":"-122.38712481217911","address":"ILLINOIS ST: MARIPOSA ST \\ TERRY A FRANCOIS BLVD to 18TH ST (600 - 699)"},{"name":"Natan's Catering","latitude":"37.74540642941645","longitude":"-122.39008122484672","address":""},{"name":"Natan's Catering","latitude":"37.746470506647114","longitude":"-122.38899080865444","address":"QUINT ST: ARTHUR AVE to CUSTER AVE (1 - 199)"},{"name":"Natan's Catering","latitude":"37.764447295561894","longitude":"-122.397987371508","address":"CONNECTICUT ST: 17TH ST to MARIPOSA ST (100 - 199)"},{"name":"Natan's Catering","latitude":"37.73314239514255","longitude":"-122.41456863241858","address":"ALEMANY BLVD: FOLSOM ST to ELLSWORTH ST \\ I-280 S OFF RAMP \\ I-280 S ON RAMP (400 - 498) -- NORTH --"},{"name":"Natan's Catering","latitude":"37.76799554568555","longitude":"-122.38754942654721","address":""},{"name":"Natan's Catering","latitude":"37.748848056566345","longitude":"-122.41261899465519","address":"HARRISON ST: 26TH ST to KAMILLE CT (3000 - 3048)"},{"name":"Natan's Catering","latitude":"37.76200845803015","longitude":"-122.38544181156826","address":""},{"name":"Natan's Catering","latitude":"37.742820234675946","longitude":"-122.38284735551785","address":"MENDELL ST: CARGO WAY to NEWHALL ST (1 - 199)"},{"name":"Natan's Catering","latitude":"37.75315510671546","longitude":"-122.3911741844557","address":""},{"name":"Natan's Catering","latitude":"37.77070297609754","longitude":"-122.39079035556641","address":"MISSION BAY BLVD SOUTH: 03RD ST \\ MISSION BAY BLVD to 04TH ST \\ MISSION BAY BLVD (501 - 599)"},{"name":"Natan's Catering","latitude":"37.74945832902701","longitude":"-122.38508133967831","address":"MARIN ST: START: 800-949 BLOCK to MICHIGAN ST (800 - 899)"},{"name":"Natan's Catering","latitude":"37.73811777159187","longitude":"-122.40441846721173","address":""},{"name":"Natan's Catering","latitude":"37.778388615786554","longitude":"-122.40319178322909","address":"HARRISON ST: MERLIN ST to OAK GROVE ST (924 - 950)"},{"name":"Natan's Catering","latitude":"37.75930376638337","longitude":"-122.39590223123567","address":"MISSOURI ST: 20TH ST to SIERRA ST (500 - 630)"},{"name":"Natan's Catering","latitude":"37.74030387280596","longitude":"-122.4060597434942","address":""},{"name":"Natan's Catering","latitude":"37.758303395642486","longitude":"-122.39351405481675","address":""},{"name":"Natan's Catering","latitude":"37.755030726766726","longitude":"-122.38453073422282","address":""},{"name":"Natan's Catering","latitude":"37.74475219161639","longitude":"-122.38567924872147","address":"BURKE AVE: START: 1500-1599 BLOCK to 03RD ST (1500 - 1599)"},{"name":"Natan's Catering","latitude":"37.76743301733124","longitude":"-122.39214911417167","address":""},{"name":"Natan's Catering","latitude":"37.7682493867935","longitude":"-122.39843065021364","address":"07TH ST: HOOPER ST to IRWIN ST (1100 - 1199)"},{"name":"Natan's Catering","latitude":"37.76315639322651","longitude":"-122.42032223152648","address":"17TH ST: MISSION ST to HOFF ST (3300 - 3343)"},{"name":"Natan's Catering","latitude":"37.769124412168054","longitude":"-122.39147491124585","address":""},{"name":"Natan's Catering","latitude":"37.748445338837655","longitude":"-122.38687903197963","address":"03RD ST: MARIN ST to ARTHUR AVE \\ CARGO WAY (3201 - 3399) -- EAST --"},{"name":"Natan's Catering","latitude":"37.74459119509166","longitude":"-122.39307688085802","address":"EVANS AVE: RANKIN ST to SELBY ST (1800 - 1890)"},{"name":"Natan's Catering","latitude":"37.76746628714475","longitude":"-122.39086028943053","address":"16TH ST: 04TH ST to OWENS ST (600 - 699)"},{"name":"Natan's Catering","latitude":"37.730003683189196","longitude":"-122.4781863254146","address":""},{"name":"Natan's Catering","latitude":"0","longitude":"0","address":"CESAR CHAVEZ ST: 03RD ST to TENNESSEE ST (1000 - 1099)"},{"name":"Natan's Catering","latitude":"37.75334000118106","longitude":"-122.38412838423727","address":"25TH ST: MARYLAND ST to MICHIGAN ST (400 - 699)"},{"name":"Natan's Catering","latitude":"37.747772091607466","longitude":"-122.39703171897757","address":"EVANS AVE: NAPOLEON ST \\ TOLAND ST to MARIN ST (2000 - 2099)"},{"name":"Natan's Catering","latitude":"37.75712456038606","longitude":"-122.3885295152567","address":""},{"name":"Natan's Catering","latitude":"37.75076076946013","longitude":"-122.40154029135653","address":"26TH ST: RHODE ISLAND ST to KANSAS ST (2200 - 2299)"},{"name":"Natan's Catering","latitude":"0","longitude":"0","address":"03RD ST: 18TH ST to 19TH ST (2101 - 2199) -- EAST --"},{"name":"Natan's Catering","latitude":"37.761182994505084","longitude":"-122.38811870407658","address":""},{"name":"Natan's Catering","latitude":"37.76537066931712","longitude":"-122.40390784821223","address":"KANSAS ST: 16TH ST to 17TH ST (300 - 399)"},{"name":"Natan's Catering","latitude":"37.75240499247832","longitude":"-122.38700019629786","address":"ILLINOIS ST: 25TH ST to ILLINOIS ST (1500 - 1599)"},{"name":"San Pancho's Tacos","latitude":"37.724297778527635","longitude":"-122.45937730954839","address":"CAPITOL AVE: DE MONTFORT AVE to OCEAN AVE (1200 - 1299)"},{"name":"San Pancho's Tacos","latitude":"0","longitude":"0","address":"BAY SHORE BLVD: CORTLAND AVE to WATERLOO ST (491 - 499) -- EAST --"},{"name":"San Pancho's Tacos","latitude":"37.71019301997575","longitude":"-122.4552219061259","address":"ALEMANY BLVD: SICKLES AVE to I-280 N ON RAMP \\ REGENT ST \\ SAN JOSE AVE (3101 - 3155) -- SOUTH --"},{"name":"Bay Area Mobile Catering, Inc. dba. Taqueria Angelica's","latitude":"37.7509316476402","longitude":"-122.4114199662057","address":"25TH ST: ALABAMA ST to HARRISON ST (3042 - 3099)"},{"name":"Bay Area Mobile Catering, Inc. dba. Taqueria Angelica's","latitude":"37.771586702670334","longitude":"-122.41400704302406","address":"FOLSOM ST: 11TH ST to NORFOLK ST (1500 - 1548)"},{"name":"Bay Area Mobile Catering, Inc. dba. Taqueria Angelica's","latitude":"37.74925585952909","longitude":"-122.39097537957679","address":"CESAR CHAVEZ ST: INDIANA ST to IOWA ST (1300 - 1399)"},{"name":"Bay Area Mobile Catering, Inc. dba. Taqueria Angelica's","latitude":"37.77522830783405","longitude":"-122.41746613186956","address":"MISSION ST: 10TH ST to 11TH ST (1400 - 1499)"},{"name":"Plaza Garibaldy","latitude":"37.78924953407508","longitude":"-122.40241859729358","address":"MONTGOMERY ST: POST ST to SUTTER ST (1 - 99)"},{"name":"Plaza Garibaldy","latitude":"37.792346385148","longitude":"-122.40238532279395","address":"CALIFORNIA ST: LEIDESDORFF ST to MONTGOMERY ST (449 - 499)"},{"name":"Plaza Garibaldy","latitude":"37.78795495968584","longitude":"-122.39723654373122","address":"HOWARD ST: 01ST ST to MALDEN ALY (500 - 589)"},{"name":"San Francisco's Hometown Creamery","latitude":"37.787136491086116","longitude":"-122.4077185090006","address":"GEARY ST: STOCKTON ST to POWELL ST (200 - 299)"},{"name":"Roadside Rotisserie Corporation \/ Country Grill","latitude":"37.79092150726921","longitude":"-122.4001004237385","address":"BUSH ST: 01ST ST \\ MARKET ST to BATTERY ST (1 - 99)"},{"name":"Roadside Rotisserie Corporation \/ Country Grill","latitude":"37.799260113502285","longitude":"-122.39961794865545","address":"FRONT ST: BROADWAY to VALLEJO ST (800 - 899)"},{"name":"Roadside Rotisserie Corporation \/ Country Grill","latitude":"37.79344652781607","longitude":"-122.40034367559197","address":"CALIFORNIA ST: BATTERY ST to SANSOME ST (300 - 399)"},{"name":"Roadside Rotisserie Corporation \/ Country Grill","latitude":"37.780918000993","longitude":"-122.39241698313292","address":"BRANNAN ST: STANFORD ST to JACK LONDON ALY (324 - 353)"},{"name":"Roadside Rotisserie Corporation \/ Country Grill","latitude":"37.788778723377995","longitude":"-122.40257456841074","address":"POST ST: MONTGOMERY ST to LICK PL (1 - 40)"},{"name":"El Alambre","latitude":"37.785271949066775","longitude":"-122.42260358516438","address":"FRANKLIN ST: MYRTLE ST to GEARY BLVD (1150 - 1199)"},{"name":"El Alambre","latitude":"37.78484602775554","longitude":"-122.42256813313709","address":"FRANKLIN ST: OFARRELL ST \\ STARR KING WAY to MYRTLE ST (1100 - 1149)"},{"name":"Truly Food & More","latitude":"37.78798864899528","longitude":"-122.39610066847152","address":"01ST ST: HOWARD ST to TEHAMA ST (200 - 231)"},{"name":"San Francisco's Hometown Creamery","latitude":"37.78869699864027","longitude":"-122.40747042036952","address":"POST ST: STOCKTON ST to POWELL ST (300 - 399)"},{"name":"San Francisco's Hometown Creamery","latitude":"37.79183426305553","longitude":"-122.40127961659626","address":"PINE ST: SANSOME ST to CENTURY PL (300 - 340)"},{"name":"El Alambre","latitude":"37.76785244271805","longitude":"-122.41610489253189","address":"14TH ST: FOLSOM ST to SHOTWELL ST (100 - 150)"},{"name":"San Francisco's Hometown Creamery","latitude":"37.79279574157871","longitude":"-122.40135328093122","address":"CALIFORNIA ST: SANSOME ST to LEIDESDORFF ST (400 - 448)"},{"name":"El Alambre","latitude":"37.76785244271805","longitude":"-122.41610489253189","address":"SHOTWELL ST: 14TH ST to 15TH ST (1 - 99)"},{"name":"San Francisco's Hometown Creamery","latitude":"37.78924953407508","longitude":"-122.40241859729358","address":"POST ST: MONTGOMERY ST to LICK PL (1 - 40)"},{"name":"Papalote Inc.","latitude":"37.792535988431084","longitude":"-122.39459319923499","address":"SPEAR ST: MARKET ST to MISSION ST (1 - 99)"},{"name":"DO UC US Mobile Catering","latitude":"37.76989774889607","longitude":"-122.3910982796345","address":"04TH ST: MISSION BAY BLVD to NELSON RISING LN (1400 - 1499)"},{"name":"DO UC US Mobile Catering","latitude":"37.74837582577795","longitude":"-122.40320062649582","address":"MARIN ST: KANSAS ST to HWY 101 N ON RAMP (2500 - 2599)"},{"name":"DO UC US Mobile Catering","latitude":"37.763864032383225","longitude":"-122.4583917498439","address":"PARNASSUS AVE: HILLWAY AVE to 03RD AVE (400 - 599)"},{"name":"Papalote Inc.","latitude":"37.78798864899528","longitude":"-122.39610066847152","address":"01ST ST: HOWARD ST to TEHAMA ST (200 - 231)"},{"name":"DO UC US Mobile Catering","latitude":"37.77089223103183","longitude":"-122.3891692314827","address":"03RD ST: MISSION BAY BLVD to WARRIORS WAY (1401 - 1599) -- EAST --"},{"name":"Brazuca Grill","latitude":"37.805049509058854","longitude":"-122.41433443693992","address":"FRANCISCO ST: MASON ST to TAYLOR ST (500 - 599)"},{"name":"Brazuca Grill","latitude":"37.723979903892854","longitude":"-122.39590345491315","address":"03RD ST: EGBERT AVE to FITZGERALD AVE (6000 - 6170) -- WEST --"},{"name":"Brazuca Grill","latitude":"37.7813800275549","longitude":"-122.42314384550635","address":"ELM ST: FRANKLIN ST to GOUGH ST (300 - 399)"},{"name":"Brazuca Grill","latitude":"37.76420237830191","longitude":"-122.39428524233958","address":"MARIPOSA ST: PENNSYLVANIA AVE to MISSISSIPPI ST (1000 - 1099)"},{"name":"Brazuca Grill","latitude":"37.75023688477907","longitude":"-122.39781803171861","address":"CESAR CHAVEZ ST: EVANS AVE to KANSAS ST (2100 - 2550)"},{"name":"Brazuca Grill","latitude":"37.76890352056648","longitude":"-122.41598117460148","address":"FOLSOM ST: ERIE ST to 14TH ST (1718 - 1799)"},{"name":"Brazuca Grill","latitude":"37.74944293760035","longitude":"-122.38798553250403","address":"03RD ST: CESAR CHAVEZ ST to MARIN ST (3100 - 3199)"},{"name":"Brazuca Grill","latitude":"37.758786162305626","longitude":"-122.39095839869275","address":"INDIANA ST: 20TH ST to 22ND ST (800 - 999)"},{"name":"Rita's Catering","latitude":"37.78069437740818","longitude":"-122.40966881321906","address":"MISSION ST: 06TH ST to 07TH ST (1000 - 1099)"},{"name":"Eva's Catering","latitude":"37.75212416311866","longitude":"-122.47587232222202","address":"ORTEGA ST: 18TH AVE to 19TH AVE (1100 - 1199)"},{"name":"Eva's Catering","latitude":"37.78350912221273","longitude":"-122.49007120809986","address":"ORTEGA ST: 18TH AVE to 19TH AVE (1100 - 1199)"},{"name":"Eva's Catering","latitude":"37.722629217598346","longitude":"-122.39006184632663","address":"INGALLS ST: CARROLL AVE to DONNER AVE (2600 - 2699)"},{"name":"Eva's Catering","latitude":"37.75798419052856","longitude":"-122.43346578040662","address":"20TH AVE: LAWTON ST to MORAGA ST (1600 - 1699)"},{"name":"Eva's Catering","latitude":"37.77609875315735","longitude":"-122.40028723986815","address":"BRANNAN ST: 05TH ST to 06TH ST \\ I-280 NORTHBOUND \\ I-280 SOUTHBOUND (600 - 699)"},{"name":"Eva's Catering","latitude":"37.77687638877653","longitude":"-122.40025957520209","address":"05TH ST: WELSH ST to BRANNAN ST (530 - 599)"},{"name":"Eva's Catering","latitude":"37.747772091607466","longitude":"-122.39703171897757","address":"EVANS AVE: NAPOLEON ST \\ TOLAND ST to MARIN ST (2000 - 2099)"},{"name":"Eva's Catering","latitude":"37.752660520412284","longitude":"-122.47547353178139","address":"ORTEGA ST: 18TH AVE to 19TH AVE (1100 - 1199)"},{"name":"Truly Food & More","latitude":"37.79238986198323","longitude":"-122.40126969523558","address":"SANSOME ST: PINE ST to CALIFORNIA ST (200 - 299)"},{"name":"Brazuca Grill","latitude":"37.74383117213268","longitude":"-122.37779736896212","address":"03RD ST: MARIN ST to ARTHUR AVE \\ CARGO WAY (3201 - 3399) -- EAST --"},{"name":"Brazuca Grill","latitude":"37.77165385136786","longitude":"-122.41180906852375","address":"10TH ST: SHERIDAN ST to HARRISON ST (350 - 399)"},{"name":"Brazuca Grill","latitude":"37.78186711757412","longitude":"-122.42988524760261","address":"EDDY ST: BUCHANAN ST to WEBSTER ST (1300 - 1399)"},{"name":"Brazuca Grill","latitude":"37.761852397504114","longitude":"-122.38993209325044","address":"TENNESSEE ST: 18TH ST to 19TH ST (700 - 799)"},{"name":"Brazuca Grill","latitude":"37.75126940587811","longitude":"-122.38989436694435","address":"26TH ST: MINNESOTA ST to INDIANA ST (1000 - 1099)"},{"name":"Brazuca Grill","latitude":"37.755030726766726","longitude":"-122.38453073422282","address":""},{"name":"Brazuca Grill","latitude":"37.7636598013494","longitude":"-122.38913385740454","address":"03RD ST: MARIPOSA ST to 18TH ST (2000 - 2098) -- WEST --"},{"name":"Brazuca Grill","latitude":"37.750464115522504","longitude":"-122.38790832590168","address":"03RD ST: 26TH ST to CESAR CHAVEZ ST (3000 - 3098) -- WEST --"},{"name":"Brazuca Grill","latitude":"37.72145083973351","longitude":"-122.38935344507568","address":"DONNER AVE: HAWES ST to INGALLS ST (1300 - 1399)"},{"name":"Brazuca Grill","latitude":"37.75692365373408","longitude":"-122.39354961053631","address":"PENNSYLVANIA AVE: 22ND ST to 23RD ST (700 - 899)"},{"name":"Brazuca Grill","latitude":"37.770683395042624","longitude":"-122.42087956139908","address":"OTIS ST: GOUGH ST \\ MCCOPPIN ST to 13TH ST \\ DUBOCE AVE \\ HWY 101 NORTHBOUND RAMP \\ MISSION ST (100 - 199)"},{"name":"Brazuca Grill","latitude":"37.75336082945507","longitude":"-122.39304592079775","address":"PENNSYLVANIA AVE: I-280 S OFF RAMP to 25TH ST (1050 - 1099)"},{"name":"Brazuca Grill","latitude":"37.7235768564887","longitude":"-122.39005910139933","address":"CARROLL AVE: INGALLS ST to JENNINGS ST (1400 - 1499)"},{"name":"Brazuca Grill","latitude":"37.78072409776966","longitude":"-122.40123539265836","address":"SHIPLEY ST: 04TH ST to 05TH ST (100 - 199)"},{"name":"Brazuca Grill","latitude":"37.758037393488074","longitude":"-122.3916718906821","address":"INDIANA ST: 20TH ST to 22ND ST (800 - 999)"},{"name":"Brazuca Grill","latitude":"37.76329905604463","longitude":"-122.38848230680541","address":"03RD ST: MARIPOSA ST to 18TH ST (2001 - 2099) -- EAST --"},{"name":"Brazuca Grill","latitude":"37.76354048392964","longitude":"-122.39009664366294","address":"TENNESSEE ST: MARIPOSA ST to 18TH ST (600 - 699)"},{"name":"Brazuca Grill","latitude":"37.75701552445967","longitude":"-122.39406294711628","address":"22ND ST: MISSISSIPPI ST to TEXAS ST (1255 - 1399)"},{"name":"Brazuca Grill","latitude":"37.757917056690076","longitude":"-122.39547585248978","address":"TEXAS ST: SIERRA ST to 22ND ST (632 - 699)"},{"name":"Brazuca Grill","latitude":"37.748445338837655","longitude":"-122.38687903197963","address":"03RD ST: MARIN ST to ARTHUR AVE \\ CARGO WAY (3201 - 3399) -- EAST --"},{"name":"Brazuca Grill","latitude":"37.723078757516","longitude":"-122.38752570401662","address":"ARMSTRONG AVE: HAWES ST to INGALLS ST (1300 - 1399)"},{"name":"Brazuca Grill","latitude":"37.727212173900384","longitude":"-122.39963625164356","address":"NEWHALL ST: BITTING AVE to EGBERT AVE (2660 - 2899)"},{"name":"Brazuca Grill","latitude":"37.76150220396644","longitude":"-122.38927699608101","address":"TENNESSEE ST: 19TH ST to 20TH ST (800 - 899)"},{"name":"Brazuca Grill","latitude":"37.763462959906555","longitude":"-122.39401294737715","address":"PENNSYLVANIA AVE: MARIPOSA ST to I-280 S OFF RAMP (200 - 256)"},{"name":"Brazuca Grill","latitude":"37.7758255197583","longitude":"-122.41724962664345","address":"MARKET ST: 10TH ST \\ FELL ST \\ POLK ST to 11TH ST (1401 - 1455) -- SOUTH --"},{"name":"Brazuca Grill","latitude":"37.75207458620838","longitude":"-122.39014490082212","address":"MINNESOTA ST: MINNESOTA ST to 26TH ST (1400 - 1499)"},{"name":"Brazuca Grill","latitude":"37.74793093611294","longitude":"-122.41519315390947","address":"SHOTWELL ST: 15TH ST to 16TH ST (100 - 199)"},{"name":"Brazuca Grill","latitude":"37.751608413578936","longitude":"-122.39030948950146","address":"26TH ST: MINNESOTA ST to INDIANA ST (1000 - 1099)"},{"name":"Brazuca Grill","latitude":"37.764052089924235","longitude":"-122.39014439398791","address":"MARIPOSA ST: TENNESSEE ST to 04TH ST \\ MINNESOTA ST (600 - 699)"},{"name":"Brazuca Grill","latitude":"37.75084960681246","longitude":"-122.3900276155014","address":"INDIANA ST: 26TH ST to CESAR CHAVEZ ST (1500 - 1599)"},{"name":"Truly Food & More","latitude":"37.78797328321604","longitude":"-122.40018504988889","address":"MISSION ST: 02ND ST to NEW MONTGOMERY ST (600 - 634)"}]